{"protocolSection":{"identificationModule":{"nctId":"NCT06471257","orgStudyIdInfo":{"id":"D6935C00003"},"organization":{"fullName":"AstraZeneca","class":"INDUSTRY"},"briefTitle":"A Study to Investigate Efficacy and Safety of PT027 Compared With PT007 in Symptomatic Chinese Adults With Asthma","officialTitle":"A Randomized, Double-blind, Multicentre, Event-driven, Parallel Group, Phase III Study Evaluating the Efficacy and Safety of PT027 Compared With PT007 Administered As Needed in Symptomatic Chinese Adults With Asthma (BAIYUN)","acronym":"BAIYUN"},"statusModule":{"statusVerifiedDate":"2024-06","overallStatus":"NOT_YET_RECRUITING","expandedAccessInfo":{"hasExpandedAccess":false},"startDateStruct":{"date":"2024-07-30","type":"ESTIMATED"},"primaryCompletionDateStruct":{"date":"2026-10-30","type":"ESTIMATED"},"completionDateStruct":{"date":"2026-10-30","type":"ESTIMATED"},"studyFirstSubmitDate":"2024-05-29","studyFirstSubmitQcDate":"2024-06-17","studyFirstPostDateStruct":{"date":"2024-06-24","type":"ACTUAL"},"lastUpdateSubmitDate":"2024-06-17","lastUpdatePostDateStruct":{"date":"2024-06-24","type":"ACTUAL"}},"sponsorCollaboratorsModule":{"responsibleParty":{"type":"SPONSOR"},"leadSponsor":{"name":"AstraZeneca","class":"INDUSTRY"}},"oversightModule":{"isFdaRegulatedDrug":false,"isFdaRegulatedDevice":false},"descriptionModule":{"briefSummary":"An event-driven, Phase III study to evaluate the efficacy and safety of BDA MDI compared with AS MDI in reducing the risk of a severe asthma exacerbation in symptomatic Chinese adults with asthma.","detailedDescription":"This is a randomized, double-blind, multicenter, event-driven, parallel group, Phase III study to assess the efficacy and safety of budesonide and albuterol metered dose inhaler (MDI) versus albuterol sulfate (AS) MDI in symptomatic Chinese adults with asthma. Both treatments will be administered as needed in response to asthma symptoms or prior to exercise. Approximately 790 participants who meet the eligibility criteria will be randomized.\n\nThe study will consist of 3 periods:\n\n1. Screening period: 14 to 28 days\n2. Treatment period: minimum of 24 weeks and maximum of 52 weeks\n3. Safety follow-up period: occur 2 weeks (± 4 days) after Visit 8, EOS or PDV, whichever occurs first\n\n790 participants who meet the eligibility criteria will be randomly assigned in a 1:1 ratio to receive one of the following 2 treatments to be used as reliever therapy on top of usual maintenance treatment:\n\n* BDA MDI 160/180 μg (administered as 2 actuations of BDA MDI 80/90 µg) as needed\n* AS MDI 180 μg (administered as 2 actuations of AS MDI 90 μg) as needed"},"conditionsModule":{"conditions":["Asthma"],"keywords":["Asthma","Chinese asthma population","PT027"]},"designModule":{"studyType":"INTERVENTIONAL","phases":["PHASE3"],"designInfo":{"allocation":"RANDOMIZED","interventionModel":"PARALLEL","primaryPurpose":"TREATMENT","maskingInfo":{"masking":"DOUBLE","whoMasked":["PARTICIPANT","INVESTIGATOR"]}},"enrollmentInfo":{"count":790,"type":"ESTIMATED"}},"armsInterventionsModule":{"armGroups":[{"label":"BDA MDI","type":"EXPERIMENTAL","description":"BDA MDI 160/180 μg (administered as 2 actuations of BDA MDI 80/90 μg)","interventionNames":["Combination Product: Budesonide/Albuterol metered dose inhaler, MDI"]},{"label":"AS MDI","type":"ACTIVE_COMPARATOR","description":"AS MDI 180 μg (administered as 2 actuations of AS MDI 90 μg)","interventionNames":["Combination Product: Albuterol sulfate metered dose inhaler, MDI"]}],"interventions":[{"type":"COMBINATION_PRODUCT","name":"Budesonide/Albuterol metered dose inhaler, MDI","description":"Combination Product (Drug + Device)","armGroupLabels":["BDA MDI"],"otherNames":["PT027"]},{"type":"COMBINATION_PRODUCT","name":"Albuterol sulfate metered dose inhaler, MDI","description":"Combination Product (Drug + Device)","armGroupLabels":["AS MDI"],"otherNames":["PT007"]}]},"outcomesModule":{"primaryOutcomes":[{"measure":"Time to first severe asthma exacerbation","description":"The efficacy of BDA MDI administered as needed compared with AS MDI on severe asthma exacerbation risk over the 24 to 52 week treatment period.","timeFrame":"24 to 52 weeks"}],"secondaryOutcomes":[{"measure":"Severe asthma exacerbation rate (annualized)","description":"The efficacy of BDA MDI administered as needed compared with AS MDI on severe asthma exacerbations and SCS exposure","timeFrame":"24 to 52 weeks"},{"measure":"Total SCS exposure over the treatment period","description":"The efficacy of BDA MDI administered as needed compared with AS MDI on severe asthma exacerbations and SCS exposure","timeFrame":"24 to 52 weeks"},{"measure":"ACQ-5 responder (≥ 0.5 decrease)","description":"The effect of BDA MDI administered as needed compared with AS MDI on PROs at Week 24","timeFrame":"Week 24"},{"measure":"AQLQ+12 responder (≥ 0.5 increase)","description":"The effect of BDA MDI administered as needed compared with AS MDI on PROs at Week 24","timeFrame":"Week 24"}]},"eligibilityModule":{"eligibilityCriteria":"Inclusion Criteria:\n\n1. Documented physician-diagnosed asthma for at least 12 months prior to Visit 1\n2. Receiving 1 of the scheduled asthma maintenance therapies for 3 months with stable dosing for at least the last 4 weeks before Visit 1\n3. Pre-bronchodilator FEV1 of ≥ 40% to \\< 90% predicted normal value for adults.\n4. Documented reversibility to albuterol\n5. A documented history of at least one severe asthma exacerbation within 12 months before Visit 1\n6. ACQ-7 score ≥ 1.5 assessed at Visit 1\n7. ACQ-5 score ≥ 1.5 assessed at Visit 2\n8. Receiving inhaled SABA as needed prior to Visit 1 for at least 3 months\n9. Use of Sponsor-provided salbutamol sulfate inhalation aerosol as needed medication due to asthma symptoms on at least 3 days during the last week of the run-in period before Visit 2\n10. Demonstrate acceptable MDI administration technique as assessed by the investigator; use of spacers is prohibited\n11. Able to perform acceptable and reproducible PEF measurements as assessed by the investigator\n12. BMI \\< 40 kg/m2\n13. Negative pregnancy test (urine at Visit 1) for female participants of childbearing potential\n14. Women of childbearing potential must agree to prevent pregnancy\n15. Compliance: must be willing to remain at the study site as required per protocol and complete all visit assessments\n\nExclusion Criteria:\n\n1. Chronic obstructive pulmonary disease or other significant lung disease\n2. Oral/SCS use (any dose) within 6 weeks before Visit 1\n3. Chronic use of OCS ≥ 3 weeks use in 3 months prior to Visit 1\n4. Having received any marketed or investigational biologic within 3 months or 5 half-lives before Visit 1, whichever is longer, or any other prohibited medication\n5. Current smokers, former smokers with \\> 10 pack-years history, or former smokers who stopped smoking \\< 6 months before Visit 1\n6. Life-threatening asthma as defined as any history of significant asthma episode(s) requiring intubation associated with hypercapnia, respiratory arrest, hypoxic seizures, or asthma related syncopal episode(s) within last 5 years of Visit 1\n7. Completed treatment for lower respiratory infection or asthma exacerbation within 6 weeks of Visit 1\n8. Upper respiratory infection involving antibiotic treatment not resolved within 7 days before Visit 1\n9. Clinically significant laboratory abnormalities\n10. Historical or current evidence of a clinically significant disease\n11. Cancer not in complete remission for at least 5 years before Visit 1\n12. History of psychiatric disease, intellectual deficiency, poor motivation, or other conditions if their magnitude is limiting informed consent validity\n13. Have a known or suspected hypersensitivity to albuterol/salbutamol, or budesonide and/or their excipients\n14. Inability to abstain from protocol-defined prohibited medications during the study\n15. Having received a live attenuated vaccination within 7 days of Visit 1\n16. Currently pregnant or breastfeeding\n17. Participants who experience \\> 1 asthma exacerbation during the screening period","healthyVolunteers":false,"sex":"ALL","minimumAge":"18 Years","stdAges":["ADULT","OLDER_ADULT"]},"contactsLocationsModule":{"centralContacts":[{"name":"AstraZeneca Clinical Study Information Center","role":"CONTACT","phone":"1-877-240-9479","email":"information.center@astrazeneca.com"}],"locations":[{"facility":"Research Site","city":"Baotou","zip":"014010","country":"China","geoPoint":{"lat":40.65222,"lon":109.82222}},{"facility":"Research Site","city":"Beijing","zip":"100020","country":"China","geoPoint":{"lat":39.9075,"lon":116.39723}},{"facility":"Research Site","city":"Beijing","zip":"100029","country":"China","geoPoint":{"lat":39.9075,"lon":116.39723}},{"facility":"Research Site","city":"Beijing","zip":"100039","country":"China","geoPoint":{"lat":39.9075,"lon":116.39723}},{"facility":"Research Site","city":"Beijing","zip":"100191","country":"China","geoPoint":{"lat":39.9075,"lon":116.39723}},{"facility":"Research Site","city":"Changsha","zip":"410015","country":"China","geoPoint":{"lat":28.19874,"lon":112.97087}},{"facility":"Research Site","city":"Chengdu","zip":"610000","country":"China","geoPoint":{"lat":30.66667,"lon":104.06667}},{"facility":"Research Site","city":"Chengdu","zip":"610021","country":"China","geoPoint":{"lat":30.66667,"lon":104.06667}},{"facility":"Research Site","city":"Chengdu","zip":"610041","country":"China","geoPoint":{"lat":30.66667,"lon":104.06667}},{"facility":"Research Site","city":"Chengdu","zip":"610072","country":"China","geoPoint":{"lat":30.66667,"lon":104.06667}},{"facility":"Research Site","city":"Chengdu","zip":"610500","country":"China","geoPoint":{"lat":30.66667,"lon":104.06667}},{"facility":"Research Site","city":"Chongqing","zip":"400037","country":"China","geoPoint":{"lat":29.56278,"lon":106.55278}},{"facility":"Research Site","city":"Chongqing","zip":"401320","country":"China","geoPoint":{"lat":29.56278,"lon":106.55278}},{"facility":"Research Site","city":"Chuangchun","zip":"130041","country":"China"},{"facility":"Research Site","city":"Dazhou","zip":"635000","country":"China","geoPoint":{"lat":31.21592,"lon":107.50092}},{"facility":"Research Site","city":"Deyang","zip":"618000","country":"China","geoPoint":{"lat":31.13019,"lon":104.38198}},{"facility":"Research Site","city":"Ganzhou","zip":"341000","country":"China"},{"facility":"Research Site","city":"Guangyuan","zip":"628000","country":"China","geoPoint":{"lat":32.44201,"lon":105.823}},{"facility":"Research Site","city":"Guangzhou","zip":"510000","country":"China","geoPoint":{"lat":23.11667,"lon":113.25}},{"facility":"Research Site","city":"Guangzhou","zip":"510080","country":"China","geoPoint":{"lat":23.11667,"lon":113.25}},{"facility":"Research Site","city":"Guangzhou","zip":"510145","country":"China","geoPoint":{"lat":23.11667,"lon":113.25}},{"facility":"Research Site","city":"Guangzhou","zip":"510163","country":"China","geoPoint":{"lat":23.11667,"lon":113.25}},{"facility":"Research Site","city":"Guangzhou","zip":"510317","country":"China","geoPoint":{"lat":23.11667,"lon":113.25}},{"facility":"Research Site","city":"Haikou","zip":"570208","country":"China","geoPoint":{"lat":20.04583,"lon":110.34167}},{"facility":"Research Site","city":"Hangzhou","zip":"310006","country":"China","geoPoint":{"lat":30.29365,"lon":120.16142}},{"facility":"Research Site","city":"Hangzhou","zip":"310009","country":"China","geoPoint":{"lat":30.29365,"lon":120.16142}},{"facility":"Research Site","city":"Hefei","zip":"133500","country":"China","geoPoint":{"lat":31.86389,"lon":117.28083}},{"facility":"Research Site","city":"Hefei","zip":"230601","country":"China","geoPoint":{"lat":31.86389,"lon":117.28083}},{"facility":"Research Site","city":"Hohhot","zip":"010017","country":"China","geoPoint":{"lat":40.81056,"lon":111.65222}},{"facility":"Research Site","city":"Huhehaote","zip":"010050","country":"China"},{"facility":"Research Site","city":"Huizhou","zip":"516001","country":"China","geoPoint":{"lat":23.11147,"lon":114.41523}},{"facility":"Research Site","city":"Huizhou","zip":"516002","country":"China","geoPoint":{"lat":23.11147,"lon":114.41523}},{"facility":"Research Site","city":"Jinan","zip":"250001","country":"China","geoPoint":{"lat":36.66833,"lon":116.99722}},{"facility":"Research Site","city":"Jinhua","country":"China","geoPoint":{"lat":29.10678,"lon":119.64421}},{"facility":"Research Site","city":"Kunming","zip":"650032","country":"China","geoPoint":{"lat":25.03889,"lon":102.71833}},{"facility":"Research Site","city":"Lanzhou","zip":"730000","country":"China","geoPoint":{"lat":36.05701,"lon":103.83987}},{"facility":"Research Site","city":"Linhai","zip":"318000","country":"China","geoPoint":{"lat":28.85535,"lon":121.14469}},{"facility":"Research Site","city":"Luzhou","zip":"646000","country":"China"},{"facility":"Research Site","city":"Mianyang","zip":"621000","country":"China","geoPoint":{"lat":31.46784,"lon":104.68168}},{"facility":"Research Site","city":"Nan Chong","zip":"637000","country":"China"},{"facility":"Research Site","city":"Nanchang","zip":"330006","country":"China","geoPoint":{"lat":28.68396,"lon":115.85306}},{"facility":"Research Site","city":"Nanjing","zip":"210009","country":"China","geoPoint":{"lat":32.06167,"lon":118.77778}},{"facility":"Research Site","city":"Nanjing","zip":"210012","country":"China","geoPoint":{"lat":32.06167,"lon":118.77778}},{"facility":"Research Site","city":"Nantong","zip":"226001","country":"China","geoPoint":{"lat":32.03028,"lon":120.87472}},{"facility":"Research Site","city":"Ningbo","zip":"315010","country":"China","geoPoint":{"lat":29.87819,"lon":121.54945}},{"facility":"Research Site","city":"Panzhihua","zip":"617099","country":"China"},{"facility":"Research Site","city":"Pingxiang","zip":"337055","country":"China","geoPoint":{"lat":27.61672,"lon":113.85353}},{"facility":"Research Site","city":"Qingdao","zip":"266011","country":"China","geoPoint":{"lat":36.06488,"lon":120.38042}},{"facility":"Research Site","city":"Rui'an","zip":"325200","country":"China"},{"facility":"Research Site","city":"Sanya","zip":"572000","country":"China","geoPoint":{"lat":18.24306,"lon":109.505}},{"facility":"Research Site","city":"Shanghai","zip":"200080","country":"China","geoPoint":{"lat":31.22222,"lon":121.45806}},{"facility":"Research Site","city":"Shanghai","zip":"201199","country":"China","geoPoint":{"lat":31.22222,"lon":121.45806}},{"facility":"Research Site","city":"Shenzhen","zip":"518020","country":"China","geoPoint":{"lat":22.54554,"lon":114.0683}},{"facility":"Research Site","city":"Shenzhen","zip":"518036","country":"China","geoPoint":{"lat":22.54554,"lon":114.0683}},{"facility":"Research Site","city":"Shijiazhuang","zip":"50051","country":"China","geoPoint":{"lat":38.04139,"lon":114.47861}},{"facility":"Research Site","city":"Suining","zip":"629000","country":"China","geoPoint":{"lat":30.50802,"lon":105.57332}},{"facility":"Research Site","city":"Taiyuan","zip":"030001","country":"China","geoPoint":{"lat":37.86944,"lon":112.56028}},{"facility":"Research Site","city":"Taiyuan","zip":"030032","country":"China","geoPoint":{"lat":37.86944,"lon":112.56028}},{"facility":"Research Site","city":"Urumqi","zip":"830054","country":"China","geoPoint":{"lat":43.80096,"lon":87.60046}},{"facility":"Research Site","city":"Wenzhou","zip":"325000","country":"China","geoPoint":{"lat":27.99942,"lon":120.66682}},{"facility":"Research Site","city":"Wenzhou","zip":"325027","country":"China","geoPoint":{"lat":27.99942,"lon":120.66682}},{"facility":"Research Site","city":"Wuhan","zip":"430030","country":"China","geoPoint":{"lat":30.58333,"lon":114.26667}},{"facility":"Research Site","city":"Wuhan","zip":"430060","country":"China","geoPoint":{"lat":30.58333,"lon":114.26667}},{"facility":"Research Site","city":"Wuhu","zip":"241000","country":"China","geoPoint":{"lat":31.33728,"lon":118.37351}},{"facility":"Research Site","city":"Xi'an","zip":"710006","country":"China","geoPoint":{"lat":34.25833,"lon":108.92861}},{"facility":"Research Site","city":"Xiamen","zip":"361003","country":"China","geoPoint":{"lat":24.47979,"lon":118.08187}},{"facility":"Research Site","city":"Xinxiang","zip":"453002","country":"China","geoPoint":{"lat":35.19033,"lon":113.80151}},{"facility":"Research Site","city":"Xuzhou","zip":"221000","country":"China","geoPoint":{"lat":34.18045,"lon":117.15707}},{"facility":"Research Site","city":"Xuzhou","zip":"221009","country":"China","geoPoint":{"lat":34.18045,"lon":117.15707}},{"facility":"Research Site","city":"Yangzhou","zip":"225003","country":"China","geoPoint":{"lat":32.39722,"lon":119.43583}},{"facility":"Research Site","city":"Yibin","zip":"610500","country":"China","geoPoint":{"lat":28.76667,"lon":104.62383}},{"facility":"Research Site","city":"Yinchuan","zip":"750001","country":"China","geoPoint":{"lat":38.46806,"lon":106.27306}},{"facility":"Research Site","city":"Yinchuan","zip":"750004","country":"China","geoPoint":{"lat":38.46806,"lon":106.27306}},{"facility":"Research Site","city":"Yuhuan","zip":"317600","country":"China"},{"facility":"Research Site","city":"Zhuhai","zip":"519000","country":"China","geoPoint":{"lat":22.27694,"lon":113.56778}},{"facility":"Research Site","city":"Zhuji","country":"China","geoPoint":{"lat":29.71877,"lon":120.24233}},{"facility":"Research Site","city":"Zibo","zip":"255036","country":"China","geoPoint":{"lat":36.79056,"lon":118.06333}},{"facility":"Research Site","city":"Zigong","zip":"643000","country":"China","geoPoint":{"lat":29.34162,"lon":104.77689}},{"facility":"Research Site","city":"Zunyi","zip":"563100","country":"China","geoPoint":{"lat":27.68667,"lon":106.90722}}]},"ipdSharingStatementModule":{"ipdSharing":"YES","description":"Qualified researchers can request access to anonymized individual patient-level data from AstraZeneca group of companies sponsored clinical trials via the request portal. All request will be evaluated as per the AZ disclosure commitment: https://astrazenecagrouptrials.pharmacm.com/ST/Submission/Disclosure. Yes, indicates that AZ are accepting requests for IPD, but this does not mean all requests will be shared.","infoTypes":["STUDY_PROTOCOL"],"timeFrame":"AstraZeneca will meet or exceed data availability as per the commitments made to the EFPIA Pharma Data Sharing Principles. For details of our timelines, please rerefer to our disclosure commitment at https://astrazenecagrouptrials.pharmacm.com/ST/Submission/Disclosure.","accessCriteria":"When a request has been approved AstraZeneca will provide access to the deidentified individual patient-level data in an approved sponsored tool . Signed Data Sharing Agreement (non-negotiable contract for data accessors) must be in place before accessing requested information. Additionally, all users will need to accept the terms and conditions of the SAS MSE to gain access. For additional details, please review the Disclosure Statements at https://astrazenecagrouptrials.pharmacm.com/ST/Submission/Disclosure.","url":"https://astrazenecagroup-dt.pharmacm.com/DT/Home"}},"derivedSection":{"miscInfoModule":{"versionHolder":"2024-07-01"},"conditionBrowseModule":{"meshes":[{"id":"D000001249","term":"Asthma"}],"ancestors":[{"id":"D000001982","term":"Bronchial Diseases"},{"id":"D000012140","term":"Respiratory Tract Diseases"},{"id":"D000008173","term":"Lung Diseases, Obstructive"},{"id":"D000008171","term":"Lung Diseases"},{"id":"D000012130","term":"Respiratory Hypersensitivity"},{"id":"D000006969","term":"Hypersensitivity, Immediate"},{"id":"D000006967","term":"Hypersensitivity"},{"id":"D000007154","term":"Immune System Diseases"}],"browseLeaves":[{"id":"M4556","name":"Asthma","asFound":"Asthma","relevance":"HIGH"},{"id":"M5258","name":"Bronchial Diseases","relevance":"LOW"},{"id":"M14977","name":"Respiratory Tract Diseases","relevance":"LOW"},{"id":"M11168","name":"Lung Diseases","relevance":"LOW"},{"id":"M11170","name":"Lung Diseases, Obstructive","relevance":"LOW"},{"id":"M10018","name":"Hypersensitivity","relevance":"LOW"},{"id":"M14967","name":"Respiratory Hypersensitivity","relevance":"LOW"},{"id":"M10020","name":"Hypersensitivity, Immediate","relevance":"LOW"},{"id":"M10200","name":"Immune System Diseases","relevance":"LOW"}],"browseBranches":[{"abbrev":"BC08","name":"Respiratory Tract (Lung and Bronchial) Diseases"},{"abbrev":"BC20","name":"Immune System Diseases"},{"abbrev":"All","name":"All Conditions"}]},"interventionBrowseModule":{"meshes":[{"id":"D000019819","term":"Budesonide"},{"id":"D000000420","term":"Albuterol"}],"ancestors":[{"id":"D000000893","term":"Anti-Inflammatory Agents"},{"id":"D000001993","term":"Bronchodilator Agents"},{"id":"D000001337","term":"Autonomic Agents"},{"id":"D000018373","term":"Peripheral Nervous System Agents"},{"id":"D000045505","term":"Physiological Effects of Drugs"},{"id":"D000018927","term":"Anti-Asthmatic Agents"},{"id":"D000019141","term":"Respiratory System Agents"},{"id":"D000005938","term":"Glucocorticoids"},{"id":"D000006728","term":"Hormones"},{"id":"D000006730","term":"Hormones, Hormone Substitutes, and Hormone Antagonists"},{"id":"D000015149","term":"Tocolytic Agents"},{"id":"D000012102","term":"Reproductive Control Agents"},{"id":"D000058666","term":"Adrenergic beta-2 Receptor Agonists"},{"id":"D000000318","term":"Adrenergic beta-Agonists"},{"id":"D000000322","term":"Adrenergic Agonists"},{"id":"D000018663","term":"Adrenergic Agents"},{"id":"D000018377","term":"Neurotransmitter Agents"},{"id":"D000045504","term":"Molecular Mechanisms of Pharmacological Action"}],"browseLeaves":[{"id":"M21711","name":"Budesonide","asFound":"Impairment","relevance":"HIGH"},{"id":"M3767","name":"Albuterol","asFound":"Low Back Pain","relevance":"HIGH"},{"id":"M4217","name":"Anti-Inflammatory Agents","relevance":"LOW"},{"id":"M5269","name":"Bronchodilator Agents","relevance":"LOW"},{"id":"M20963","name":"Anti-Asthmatic Agents","relevance":"LOW"},{"id":"M21137","name":"Respiratory System Agents","relevance":"LOW"},{"id":"M9047","name":"Glucocorticoids","relevance":"LOW"},{"id":"M9789","name":"Hormones","relevance":"LOW"},{"id":"M9788","name":"Hormone Antagonists","relevance":"LOW"},{"id":"M17869","name":"Tocolytic Agents","relevance":"LOW"},{"id":"M20746","name":"Adrenergic Agents","relevance":"LOW"},{"id":"M3670","name":"Adrenergic beta-Agonists","relevance":"LOW"},{"id":"M3673","name":"Adrenergic Agonists","relevance":"LOW"},{"id":"M20504","name":"Neurotransmitter Agents","relevance":"LOW"}],"browseBranches":[{"abbrev":"Infl","name":"Anti-Inflammatory Agents"},{"abbrev":"Resp","name":"Respiratory System Agents"},{"abbrev":"All","name":"All Drugs and Chemicals"},{"abbrev":"Repr","name":"Reproductive Control Agents"}]}},"hasResults":false}