{"protocolSection":{"identificationModule":{"nctId":"NCT06477237","orgStudyIdInfo":{"id":"HB0017-07"},"organization":{"fullName":"Huabo Biopharm Co., Ltd.","class":"INDUSTRY"},"briefTitle":"Study of Efficacy and Safety of HB0017 in Patients With Moderate to Severe Plaque Psoriasis","officialTitle":"A Multicenter, Randomized, Double-blind, Placebo-controlled Phase III Study to Evaluate the Efficacy and Safety of HB0017 Injection in Patients With Moderate to Severe Plaque Psoriasis"},"statusModule":{"statusVerifiedDate":"2024-06","overallStatus":"RECRUITING","expandedAccessInfo":{"hasExpandedAccess":false},"startDateStruct":{"date":"2024-03-01","type":"ACTUAL"},"primaryCompletionDateStruct":{"date":"2024-08","type":"ESTIMATED"},"completionDateStruct":{"date":"2025-12","type":"ESTIMATED"},"studyFirstSubmitDate":"2024-06-18","studyFirstSubmitQcDate":"2024-06-25","studyFirstPostDateStruct":{"date":"2024-06-27","type":"ACTUAL"},"lastUpdateSubmitDate":"2024-06-25","lastUpdatePostDateStruct":{"date":"2024-06-27","type":"ACTUAL"}},"sponsorCollaboratorsModule":{"responsibleParty":{"type":"SPONSOR"},"leadSponsor":{"name":"Huabo Biopharm Co., Ltd.","class":"INDUSTRY"}},"oversightModule":{"isFdaRegulatedDrug":false,"isFdaRegulatedDevice":false},"descriptionModule":{"briefSummary":"This is a multicenter, randomized, double-blind, placebo-controlled, phase III clinical study which is designed to determine the efficacy, safety, immunogenicity and pharmacokinetics, and pharmacodynamics of HB0017 Injection in the treatment of moderate to severe plaque psoriasis in adults."},"conditionsModule":{"conditions":["Psoriasis"],"keywords":["psoriasis; HB0017"]},"designModule":{"studyType":"INTERVENTIONAL","phases":["PHASE3"],"designInfo":{"allocation":"RANDOMIZED","interventionModel":"PARALLEL","primaryPurpose":"TREATMENT","maskingInfo":{"masking":"QUADRUPLE","whoMasked":["PARTICIPANT","CARE_PROVIDER","INVESTIGATOR","OUTCOMES_ASSESSOR"]}},"enrollmentInfo":{"count":400,"type":"ESTIMATED"}},"armsInterventionsModule":{"armGroups":[{"label":"HB0017","type":"EXPERIMENTAL","description":"Participants will receive HB0017 at week 0,1,2,4,8 followed by once every four weeks (Q4W) or once every eight weeks (Q8W) at Week 12.","interventionNames":["Biological: HB0017 Q4W","Biological: HB0017 Q8W"]},{"label":"placebo","type":"PLACEBO_COMPARATOR","description":"Participants will receive placebo at week 0,1,2,4,8 followed by HB0017 once every four weeks (Q4W) at Week 12.","interventionNames":["Biological: placebo"]}],"interventions":[{"type":"BIOLOGICAL","name":"HB0017 Q4W","description":"HB0017 at W0,1,2,4,8+HB0017Q4W","armGroupLabels":["HB0017"]},{"type":"BIOLOGICAL","name":"HB0017 Q8W","description":"HB0017 at W0,1,2,4,8+HB0017Q8W","armGroupLabels":["HB0017"]},{"type":"BIOLOGICAL","name":"placebo","description":"placebo at W0,1,2,4,8+HB0017Q4W","armGroupLabels":["placebo"]}]},"outcomesModule":{"primaryOutcomes":[{"measure":"Proportion of subjects achieving PASI 75 response at Week 12","description":"The PASI75 response assessments are based on at least 75% improvement in PASI score from Baseline.","timeFrame":"Week 12"},{"measure":"Proportion of subjects achieving sPGA 0/1 response at Week 12","description":"The sPGA is a physician's determination of the participant's psoriasis lesions overall at a given time point categorized by descriptions for induration, erythema, and scaling. For the analysis of responses, the participant's psoriasis is assessed as clear (0), Almost clear (1), mild (2), moderate (3), severe (4). An sPGA 0/1 response was defined as a post-baseline sPGA score of 0 or 1.","timeFrame":"Week 12"}],"secondaryOutcomes":[{"measure":"Proportion of subjects achieving PASI 90 response at Week 12","description":"The PASI90 response assessments are based on at least 90% improvement in PASI score from Baseline.","timeFrame":"Week 12"},{"measure":"PASI 90 response maintainance at week 52","description":"Proportion of subjects maintaining PASI 90 response at Week 52 among those with PASI 90 response at Week 12","timeFrame":"Week12-52"},{"measure":"sPGA 0/1 response maintainance at week 52","description":"Proportion of subjects maintaining sPGA 0/1 response at Week 52 among those with sPGA 0/1 response at Week 12.","timeFrame":"Week 12-52"},{"measure":"PASI 75 response maintainance at week 52","description":"Proportion of subjects maintaining PASI 75 response at Week 52 among those with PASI 75 response at Week 12.","timeFrame":"Week12-52"}]},"eligibilityModule":{"eligibilityCriteria":"Inclusion Criteria:\n\n* Male or female subjects aged 18-75 years (inclusive)\n* Chronic plaque psoriasis (PSO) for at least 6 months prior to the Randomization.\n* Psoriasis Area Severity Index (PASI) \\>=12 and body surface area (BSA) affected by PSO \\>=10% and Static Physician Global Assessment (sPGA) score \\>=3.\n* Subjects who are suitable for systemic treatment or phototherapy for psoriasis as judged by the investigator\n* Subjects who are able to use effective contraception from the screening period to 6 months after the last dose\n\nKey Exclusion Criteria:\n\n* Forms of psoriasis other than chronic plaque-type (e.g., pustular, erythrodermic and/or guttate psoriasis) at screening or baseline\n* Drug-induced psoriasis\n* Ongoing use of prohibited treatments\n* Any active infection (other than common cold) within 14 days\n* Serious infection defined as requiring hospitalization or iv anti-infective(s) within 1 month prior to randomization\n* Have previously received any drug that directly targets IL-17 or IL-17 receptor\n* Have concurrent or recent use of any biologic agent within the following washout periods: etanercept \\<28 days; infliximab and adalimumab \\<60 days; golimumab \\< 90 days; anti-IL-12/anti-IL-23 or anti-IL-23p19 antibody drugs \\<6 months; or other anti-psoriatic therapy not listed herein within its 5 half-lives prior to randomization\n* A history of inflammatory bowel disease or other serious autoimmune disease\n* Previously diagnosed with serious mental illness such as anxiety, depression or suicidal tendency","healthyVolunteers":false,"sex":"ALL","minimumAge":"18 Years","maximumAge":"75 Years","stdAges":["ADULT","OLDER_ADULT"]},"contactsLocationsModule":{"centralContacts":[{"name":"Jianzhong Zhang, MD","role":"CONTACT","phone":"86-10-88326666","email":"rmzjz@126.com"}],"overallOfficials":[{"name":"Jianzhong Zhang, MD","affiliation":"Peking University People's Hospital","role":"PRINCIPAL_INVESTIGATOR"}],"locations":[{"facility":"Jiangmen Central Hospital","status":"NOT_YET_RECRUITING","city":"Jiangmen","state":"Guangdong","country":"China","contacts":[{"name":"Wei Qin","role":"CONTACT","phone":"15913608456","email":"82941853@qq.com"}],"geoPoint":{"lat":22.58333,"lon":113.08333}},{"facility":"Nanyang First People's Hospital","status":"RECRUITING","city":"Nanyang","state":"Henan","country":"China","contacts":[{"name":"Rixin Chen","role":"CONTACT","phone":"13849795170","email":"pfkgcpby@163.com"}],"geoPoint":{"lat":32.99472,"lon":112.53278}},{"facility":"Beijing Friendship Hospital","status":"RECRUITING","city":"Beijing","country":"China","contacts":[{"name":"Linfeng Li","role":"CONTACT","phone":"13693620186","email":"zoonli@sina.com"}],"geoPoint":{"lat":39.9075,"lon":116.39723}},{"facility":"China-Japan Friendship hospital","status":"RECRUITING","city":"Beijing","country":"China","contacts":[{"name":"Yong Cui","role":"CONTACT","phone":"15701625913","email":"wuhucuiyong@vip.163.com"}],"geoPoint":{"lat":39.9075,"lon":116.39723}},{"facility":"Peking University People's Hospital","status":"RECRUITING","city":"Beijing","country":"China","contacts":[{"name":"Jianzhong Zhang, MD","role":"CONTACT","phone":"+861088326666","email":"rmzjz@126.com"},{"name":"Cheng Zhou, MD","role":"PRINCIPAL_INVESTIGATOR"},{"name":"Jianzhong Zhang, MD","role":"PRINCIPAL_INVESTIGATOR"}],"geoPoint":{"lat":39.9075,"lon":116.39723}},{"facility":"The First Affiliated Hospital of Bengbu Medical College","status":"RECRUITING","city":"Bengbu","country":"China","contacts":[{"name":"Congjun Jiang","role":"CONTACT","phone":"15155281266","email":"fessor5195@163.com"}],"geoPoint":{"lat":32.94083,"lon":117.36083}},{"facility":"Jilin University Second Hospital","status":"RECRUITING","city":"Chang chun","country":"China","contacts":[{"name":"Fuqiu Li","role":"CONTACT","phone":"13039123758","email":"Lifuqiu1234@126.com"}],"geoPoint":{"lat":42.74694,"lon":126.24667}},{"facility":"The first hospital of Jilin University","status":"RECRUITING","city":"Chang chun","country":"China","contacts":[{"name":"Shanshan Li","role":"CONTACT","phone":"13756661632","email":"shansalee@163.com"}],"geoPoint":{"lat":42.74694,"lon":126.24667}},{"facility":"Xiangya Hospital of Central South University","status":"RECRUITING","city":"Changsha","country":"China","contacts":[{"name":"Juan Su","role":"CONTACT","phone":"15116408921","email":"540020068@.qq.com"}],"geoPoint":{"lat":28.19874,"lon":112.97087}},{"facility":"Affiliated Hospital of Chengde Medical University","status":"RECRUITING","city":"Chengde","country":"China","contacts":[{"name":"Xinsuo Duan","role":"CONTACT","phone":"15633142680","email":"duanxinsuo2002@163.com"}],"geoPoint":{"lat":40.9519,"lon":117.95883}},{"facility":"Sichuan Provincial People's Hospital","status":"NOT_YET_RECRUITING","city":"Chengdu","country":"China","contacts":[{"name":"Yangying Liu","role":"CONTACT","phone":"13881869265","email":"liuyangying3503@sina.com"}],"geoPoint":{"lat":30.66667,"lon":104.06667}},{"facility":"West China Hospital of Sichuan University","status":"NOT_YET_RECRUITING","city":"Chengdu","country":"China","contacts":[{"name":"Wei Li","role":"CONTACT","phone":"18980601695","email":"hxb_liwei@163.com"}],"geoPoint":{"lat":30.66667,"lon":104.06667}},{"facility":"Chongqing Traditional Chinese Medicine Hospital","status":"NOT_YET_RECRUITING","city":"Chongqing","country":"China","contacts":[{"name":"Bin Zhang","role":"CONTACT","phone":"13883082218","email":"562868146@qq.com"}],"geoPoint":{"lat":29.56278,"lon":106.55278}},{"facility":"Dongguan People's Hospital","status":"RECRUITING","city":"Dongguan","country":"China","contacts":[{"name":"Guangming Han","role":"CONTACT","phone":"13533391069","email":"ghan54321@163.com"}],"geoPoint":{"lat":23.01797,"lon":113.74866}},{"facility":"The First Affiliated Hospital of Fujian Medical University","status":"RECRUITING","city":"Fuzhou","country":"China","contacts":[{"name":"Chao Ji","role":"CONTACT","phone":"18651619908","email":"surpassing_jc@163.com"}],"geoPoint":{"lat":26.06139,"lon":119.30611}},{"facility":"Dermatology Hospital of Southern Medical University","status":"RECRUITING","city":"Guangzhou","country":"China","contacts":[{"name":"Xiaohua Wang","role":"CONTACT","phone":"13763359607","email":"wxh_21773@163.com"}],"geoPoint":{"lat":23.11667,"lon":113.25}},{"facility":"Guangdong Provincial People's Hospital","status":"RECRUITING","city":"Guangzhou","country":"China","contacts":[{"name":"Zhu Shen","role":"CONTACT","phone":"13983174426","email":"zhshencq@163.com"}],"geoPoint":{"lat":23.11667,"lon":113.25}},{"facility":"Hangzhou First People's Hospital","status":"RECRUITING","city":"Hangzhou","country":"China","contacts":[{"name":"Liming Wu","role":"CONTACT","phone":"13750837205","email":"18957118053@163.com"}],"geoPoint":{"lat":30.29365,"lon":120.16142}},{"facility":"Hangzhou Third People's Hospital","status":"NOT_YET_RECRUITING","city":"Hangzhou","country":"China","contacts":[{"name":"yunyun shan","role":"CONTACT","phone":"13858080025","email":"Shanyunyun7@163.com"}],"geoPoint":{"lat":30.29365,"lon":120.16142}},{"facility":"The First Affiliated Hospital of Zhejiang University School of Medicine","status":"NOT_YET_RECRUITING","city":"Hangzhou","country":"China","contacts":[{"name":"Jianjun Qiao","role":"CONTACT","phone":"13735542393","email":"qiaojianjun321@sina.com"}],"geoPoint":{"lat":30.29365,"lon":120.16142}},{"facility":"The Second Affiliated Hospital of Harbin Medical University","status":"RECRUITING","city":"Harbin","country":"China","contacts":[{"name":"Yuzhen Su","role":"CONTACT","phone":"13936367628","email":"liyuzhenyidaeryuan@126.com"}],"geoPoint":{"lat":45.75,"lon":126.65}},{"facility":"The Second Affiliated Hospital of Anhui Medical University","status":"RECRUITING","city":"Hefei","country":"China","contacts":[{"name":"Chunjun Yang","role":"CONTACT","phone":"13966681316","email":"yangchunjun9@163.com"}],"geoPoint":{"lat":31.86389,"lon":117.28083}},{"facility":"Jiaxing First Hospital","status":"RECRUITING","city":"Jiaxing","country":"China","contacts":[{"name":"Wenhao Yin","role":"CONTACT","phone":"13957323606","email":"whyin69@sina.com"}],"geoPoint":{"lat":30.7522,"lon":120.75}},{"facility":"Shandong Dermatology Hospital","status":"RECRUITING","city":"Jinan","country":"China","contacts":[{"name":"Furen Zhang","role":"CONTACT","phone":"13608921718","email":"zhangfurenlcsy@163.com"}],"geoPoint":{"lat":36.66833,"lon":116.99722}},{"facility":"Jining First People's Hospital","status":"NOT_YET_RECRUITING","city":"Jining","country":"China","contacts":[{"name":"Dongmei Shi","role":"CONTACT","phone":"18678769757","email":"shidongmei28@163.com"}],"geoPoint":{"lat":35.405,"lon":116.58139}},{"facility":"The First Affiliated Hospital of Kunming Medical University","status":"RECRUITING","city":"Kunming","country":"China","contacts":[{"name":"Yuye Li","role":"CONTACT","phone":"13987165540","email":"yyeli2000@126.com"}],"geoPoint":{"lat":25.03889,"lon":102.71833}},{"facility":"The Second Affiliated Hospital of Kunming Medical University","status":"RECRUITING","city":"Kunming","country":"China","contacts":[{"name":"Danqi Deng","role":"CONTACT","phone":"13888139863","email":"danqid128@sina.com"}],"geoPoint":{"lat":25.03889,"lon":102.71833}},{"facility":"The Second Affiliated Hospital of Henan University of Science and Technology","status":"RECRUITING","city":"Luoyang","country":"China","contacts":[{"name":"Lin Chen","role":"CONTACT","phone":"18739089880","email":"chenlin01@163.com"}],"geoPoint":{"lat":34.68361,"lon":112.45361}},{"facility":"Dermatology Hospital of Jiangxi Province","status":"RECRUITING","city":"Nanchang","country":"China","contacts":[{"name":"Fengming Hu","role":"CONTACT","phone":"18970802429","email":"1262200957@qq.com"}],"geoPoint":{"lat":28.68396,"lon":115.85306}},{"facility":"The Second Affiliated Hospital of Nanchang University","status":"RECRUITING","city":"Nanchang","country":"China","contacts":[{"name":"Meiying Jiang","role":"CONTACT","phone":"13870913263","email":"151465672@qq.com"}],"geoPoint":{"lat":28.68396,"lon":115.85306}},{"facility":"Jiangsu University Affiliated Hospital","status":"RECRUITING","city":"Nanjing","country":"China","contacts":[{"name":"yumei Li","role":"CONTACT","phone":"13914569541","email":"l.yumei@aliyun.com"}],"geoPoint":{"lat":32.06167,"lon":118.77778}},{"facility":"Ningbo Second Hospital","status":"RECRUITING","city":"Ningbo","country":"China","contacts":[{"name":"Jinyang Wang","role":"CONTACT","phone":"13586795265","email":"nbwangjinyan@126.com"}],"geoPoint":{"lat":29.87819,"lon":121.54945}},{"facility":"Shanghai Dermatology Hospital","status":"RECRUITING","city":"Shanghai","country":"China","contacts":[{"name":"Yangfeng Ding","role":"CONTACT","phone":"18017336636","email":"dingyangfeng@hotmail.com"}],"geoPoint":{"lat":31.22222,"lon":121.45806}},{"facility":"People's Hospital of Liaoning Province","status":"RECRUITING","city":"Shenyang","country":"China","contacts":[{"name":"Lili Zhu","role":"CONTACT","phone":"17702486330","email":"zhulili011006@126.com"}],"geoPoint":{"lat":41.79222,"lon":123.43278}},{"facility":"Shenzhen People's Hospital","status":"RECRUITING","city":"Shenzhen","country":"China","contacts":[{"name":"Lixiong Zheng","role":"CONTACT","phone":"13902473550","email":"644955858@qq.com"}],"geoPoint":{"lat":22.54554,"lon":114.0683}},{"facility":"Shiyan People's Hospital","status":"RECRUITING","city":"Shiyan","country":"China","contacts":[{"name":"Zudong Meng","role":"CONTACT","phone":"13997837543","email":"1970547910@qq.com"}],"geoPoint":{"lat":32.6475,"lon":110.77806}},{"facility":"The Second Hospital of Shanxi Medical University","status":"RECRUITING","city":"Taiyuan","country":"China","contacts":[{"name":"Wenli Feng","role":"CONTACT","phone":"13935198008","email":"fwl92@hotmail.com"}],"geoPoint":{"lat":37.86944,"lon":112.56028}},{"facility":"Wenzhou Medical University Affiliated First Hospital","status":"RECRUITING","city":"Wenzhou","country":"China","contacts":[{"name":"Zhiming Li","role":"CONTACT","phone":"15988718867","email":"zhi-mingli@163.com"}],"geoPoint":{"lat":27.99942,"lon":120.66682}},{"facility":"Wuhan University People's Hospital","status":"RECRUITING","city":"Wuhan","country":"China","contacts":[{"name":"Tiechi Lei","role":"CONTACT","phone":"15337173507","email":"tiechilei@126.com"}],"geoPoint":{"lat":30.58333,"lon":114.26667}},{"facility":"The First Affiliated Hospital of Wannan Medical College","status":"RECRUITING","city":"Wuhu","country":"China","contacts":[{"name":"Chao Ci","role":"CONTACT","phone":"13956218911","email":"cichao8911@126.com"}],"geoPoint":{"lat":31.33728,"lon":118.37351}},{"facility":"Wuxi Second People's Hospital","status":"RECRUITING","city":"Wuxi","country":"China","contacts":[{"name":"Lei Cao","role":"CONTACT","phone":"15061830915","email":"caolei_lei@qq.com"}],"geoPoint":{"lat":31.56887,"lon":120.28857}},{"facility":"The Second Affiliated Hospital of Xi'an Jiaotong University","status":"RECRUITING","city":"Xi'an","country":"China","contacts":[{"name":"Songmei Geng","role":"CONTACT","phone":"13060423612","email":"gengsongmei73@163.com"}],"geoPoint":{"lat":34.25833,"lon":108.92861}},{"facility":"Xingtai People's Hospital","status":"RECRUITING","city":"Xingtai","country":"China","contacts":[{"name":"Fang Cheng","role":"CONTACT","phone":"18931912286","email":"chengfang@xtgcp.cn"}],"geoPoint":{"lat":37.06306,"lon":114.49417}},{"facility":"Yangjiang People's Hospital","status":"NOT_YET_RECRUITING","city":"Yangjiang","country":"China","contacts":[{"name":"Weiliang Wang","role":"CONTACT","phone":"13751641793","email":"13751641793@163.com"}],"geoPoint":{"lat":21.85563,"lon":111.96272}}]}},"derivedSection":{"miscInfoModule":{"versionHolder":"2024-07-01"},"conditionBrowseModule":{"meshes":[{"id":"D000011565","term":"Psoriasis"}],"ancestors":[{"id":"D000017444","term":"Skin Diseases, Papulosquamous"},{"id":"D000012871","term":"Skin Diseases"}],"browseLeaves":[{"id":"M14422","name":"Psoriasis","asFound":"Psoriasis","relevance":"HIGH"},{"id":"M15674","name":"Skin Diseases","relevance":"LOW"},{"id":"M19713","name":"Skin Diseases, Papulosquamous","relevance":"LOW"}],"browseBranches":[{"abbrev":"BC17","name":"Skin and Connective Tissue Diseases"},{"abbrev":"All","name":"All Conditions"}]}},"hasResults":false}