{"protocolSection":{"identificationModule":{"nctId":"NCT06480383","orgStudyIdInfo":{"id":"ITI-1284-301"},"organization":{"fullName":"Intra-Cellular Therapies, Inc.","class":"INDUSTRY"},"briefTitle":"Study of ITI-1284 as an Adjunctive Treatment in Patients With Generalized Anxiety Disorder","officialTitle":"A Multicenter, Randomized, Double-blind, Placebo-controlled Study to Assess the Efficacy, Safety, and Tolerability of ITI-1284 as an Adjunctive Treatment in Patients With Generalized Anxiety Disorder Who Have an Inadequate Response to Generalized Anxiety Disorder Treatment"},"statusModule":{"statusVerifiedDate":"2024-06","overallStatus":"RECRUITING","expandedAccessInfo":{"hasExpandedAccess":false},"startDateStruct":{"date":"2024-06","type":"ESTIMATED"},"primaryCompletionDateStruct":{"date":"2026-12","type":"ESTIMATED"},"completionDateStruct":{"date":"2027-01","type":"ESTIMATED"},"studyFirstSubmitDate":"2024-06-24","studyFirstSubmitQcDate":"2024-06-24","studyFirstPostDateStruct":{"date":"2024-06-28","type":"ACTUAL"},"lastUpdateSubmitDate":"2024-06-24","lastUpdatePostDateStruct":{"date":"2024-06-28","type":"ACTUAL"}},"sponsorCollaboratorsModule":{"responsibleParty":{"type":"SPONSOR"},"leadSponsor":{"name":"Intra-Cellular Therapies, Inc.","class":"INDUSTRY"}},"oversightModule":{"oversightHasDmc":false,"isFdaRegulatedDrug":true,"isFdaRegulatedDevice":false},"descriptionModule":{"briefSummary":"This is a multicenter, randomized, double-blind, placebo-controlled study evaluating the efficacy, safety, and tolerability of ITI-1284 compared with placebo as adjunctive therapy to GAD treatment in patients meeting Diagnostic and Statistical Manual of Mental Disorders, Fifth Edition, Text Revision (DSM-5-TR) criteria for GAD who have an inadequate response to ongoing GAD treatment.","detailedDescription":"The study will be conducted in 3 periods:\n\n* Screening Period (up to 3 weeks) during which patient eligibility will be assessed and the washout of prohibited medications will occur.\n* Double-blind Treatment Period (6 weeks) during which patients will be randomized in a 1:1:1 ratio to receive one of the 3 treatments (ITI-1284 10 mg, ITI-1284 20 mg, or placebo).\n* Safety Follow-up Period (1 week) during which all patients will return for a safety follow-up visit."},"conditionsModule":{"conditions":["Generalized Anxiety Disorder"]},"designModule":{"studyType":"INTERVENTIONAL","phases":["PHASE2"],"designInfo":{"allocation":"RANDOMIZED","interventionModel":"PARALLEL","primaryPurpose":"TREATMENT","maskingInfo":{"masking":"TRIPLE","whoMasked":["PARTICIPANT","INVESTIGATOR","OUTCOMES_ASSESSOR"]}},"enrollmentInfo":{"count":705,"type":"ESTIMATED"}},"armsInterventionsModule":{"armGroups":[{"label":"ITI-1284 10mg","type":"EXPERIMENTAL","interventionNames":["Drug: ITI-1284 10 mg"]},{"label":"ITI-1284 20mg","type":"EXPERIMENTAL","interventionNames":["Drug: ITI-1284 20 mg"]},{"label":"Placebo","type":"PLACEBO_COMPARATOR","interventionNames":["Drug: Placbo"]}],"interventions":[{"type":"DRUG","name":"ITI-1284 10 mg","description":"ITI-1284 10 mg tablet, taken once daily, sublingual administration.","armGroupLabels":["ITI-1284 10mg"]},{"type":"DRUG","name":"ITI-1284 20 mg","description":"ITI-1284 20 mg tablet, taken once daily, sublingual administration.","armGroupLabels":["ITI-1284 20mg"]},{"type":"DRUG","name":"Placbo","description":"Matching placebo tablet, taken once daily, sublingual administration","armGroupLabels":["Placebo"]}]},"outcomesModule":{"primaryOutcomes":[{"measure":"Hamilton Anxiety Rating Scale (HAM-A)","description":"The HAM-A Scale is a clinician-rated scale measuring both psychic anxiety (mental agitation and psychological distress) and somatic anxiety (physical complaints related to anxiety). It comprises of 14 items that are rated on a 5-point scale ranging from 0 = not present to 4 = very severe, disabling symptoms. The HAM-A total score ranges from 0 to 56 with a higher score indicating increased severity of anxiety symptoms.","timeFrame":"Week 6"}],"secondaryOutcomes":[{"measure":"Clinical Global Impression Scale-Severity (CGI-S)","description":"The CGI-S is a clinician-rated scale to assess a patient's overall mental health. The scale ranges from 1 (normal, not at all ill) to 7 (among the most extremely ill patients)","timeFrame":"Week 6"}]},"eligibilityModule":{"eligibilityCriteria":"Inclusion Criteria:\n\n1. Provide written informed consent before the initiation of any study specific procedures;\n2. Male or female patients ≥ 18 years of age;\n3. At Screening, meet Diagnostic and Statistical Manual of Mental Disorders, Fifth Edition, Text Revision (DSM-5-TR) diagnostic criteria for moderate or severe GAD as confirmed by the Investigator or Sponsor-approved rater using the Structured Clinical Interview for DSM-5 Clinical Trials Version (SCID-5-CT), and meets all of the following at Screening and Baseline:\n\n   1. HAM-A Total score of ≥ 22;\n   2. HAM-A Items 1 (anxious mood) and 2 (tension) scores ≥ 2;\n   3. CGI-S score of ≥ 4;\n4. History of inadequate response (\\< 50% improvement in anxiety symptoms as measured by the modified Antidepressant Treatment Response Questionnaire \\[ATRQ\\] for GAD) to at least 1 GAD-approved treatment (ie, one of the following GAD-approved treatments: paroxetine, venlafaxine XR, duloxetine, escitalopram, or buspirone) taken at an adequate dose (at least the minimum GAD-approved dose per package insert) and duration (ie, daily for at least 6 weeks) for the treatment of ongoing GAD symptoms;\n5. Currently having an inadequate response to one of the following GAD-approved treatments: paroxetine, venlafaxine XR, duloxetine, escitalopram, or buspirone taken at an adequate dose (at least the minimum GAD-approved dose per package insert) and duration (ie, for at least 6 weeks prior to Screening) and agrees to continue the same dosing regimen for the duration of the study.\n\nNOTE: The current GAD-approved treatment must be different from the GAD treatment identified as the historical failure.\n\nExclusion Criteria:\n\n1. Within the patient's lifetime, has one of the following confirmed DSM-5-TR psychiatric diagnoses:\n\n   1. Schizophrenia, Schizoaffective Disorder, Schizophreniform Disorder or other psychotic disorder;\n   2. Bipolar Disorder;\n2. MADRS total score \\> 18 at Screening or Baseline;\n3. In the opinion of the Investigator, the patient has a significant risk for suicidal behavior during his/her participation in the study or\n\n   1. At Screening, the patient scores \"yes\" on Suicidal Ideation Items 4 or 5 of the C-SSRS within 6 months prior to Screening or, at Baseline, the patient scores \"yes\" on Suicidal Ideation Items 4 or 5 since the Screening Visit;\n   2. At Screening, the patient has had 1 or more suicidal attempts within the 2 years prior to Screening;\n   3. At Screening or Baseline MADRS Item 10 score ≥ 5; or\n   4. The patient is considered to be an imminent danger to him/herself or others based on the assessment of the Investigator.\n4. Lifetime history of failure to respond to \\> 3 of the approved treatments for GAD (ie, paroxetine, venlafaxine XR, duloxetine, escitalopram, or buspirone) at an adequate dose (ie, at least the minimum dose approved for GAD per package insert) and for an adequate duration (ie, at least 6 weeks).","healthyVolunteers":false,"sex":"ALL","minimumAge":"18 Years","stdAges":["ADULT","OLDER_ADULT"]},"contactsLocationsModule":{"centralContacts":[{"name":"ITI Clinical Trials","role":"CONTACT","phone":"6464409333","email":"ITCIClinicalTrials@itci-inc.com"}],"locations":[{"facility":"Clinical Site","status":"NOT_YET_RECRUITING","city":"Chandler","state":"Arizona","zip":"85224","country":"United States","geoPoint":{"lat":33.30616,"lon":-111.84125}},{"facility":"Clinical Site","status":"NOT_YET_RECRUITING","city":"Encino","state":"California","zip":"91316","country":"United States","geoPoint":{"lat":34.15917,"lon":-118.50119}},{"facility":"Clinical Site","status":"RECRUITING","city":"Glendale","state":"California","zip":"91206","country":"United States","geoPoint":{"lat":34.14251,"lon":-118.25508}},{"facility":"Clinical Site","status":"NOT_YET_RECRUITING","city":"Oceanside","state":"California","zip":"92056","country":"United States","geoPoint":{"lat":33.19587,"lon":-117.37948}},{"facility":"Clinical Site","status":"NOT_YET_RECRUITING","city":"Orange","state":"California","zip":"92868","country":"United States","geoPoint":{"lat":33.78779,"lon":-117.85311}},{"facility":"Clinical Site","status":"NOT_YET_RECRUITING","city":"Redlands","state":"California","zip":"92374","country":"United States","geoPoint":{"lat":34.05557,"lon":-117.18254}},{"facility":"Clinical Site","status":"NOT_YET_RECRUITING","city":"Gainesville","state":"Florida","zip":"32607","country":"United States","geoPoint":{"lat":29.65163,"lon":-82.32483}},{"facility":"Clinical Site","status":"RECRUITING","city":"Lauderhill","state":"Florida","zip":"33319","country":"United States","geoPoint":{"lat":26.14036,"lon":-80.21338}},{"facility":"Clinical Site","status":"NOT_YET_RECRUITING","city":"Maitland","state":"Florida","zip":"32751","country":"United States","geoPoint":{"lat":28.62778,"lon":-81.36312}},{"facility":"Clinical Site","status":"NOT_YET_RECRUITING","city":"Miami Springs","state":"Florida","zip":"33166","country":"United States","geoPoint":{"lat":25.82232,"lon":-80.2895}},{"facility":"Clinical Site","status":"NOT_YET_RECRUITING","city":"Miami","state":"Florida","zip":"33012","country":"United States","geoPoint":{"lat":25.77427,"lon":-80.19366}},{"facility":"Clinical Site","status":"RECRUITING","city":"Miami","state":"Florida","zip":"33125","country":"United States","geoPoint":{"lat":25.77427,"lon":-80.19366}},{"facility":"Clinical Site","status":"NOT_YET_RECRUITING","city":"Miami","state":"Florida","zip":"33176","country":"United States","geoPoint":{"lat":25.77427,"lon":-80.19366}},{"facility":"Clinical Site","status":"NOT_YET_RECRUITING","city":"Orlando","state":"Florida","zip":"32803","country":"United States","geoPoint":{"lat":28.53834,"lon":-81.37924}},{"facility":"Clinical Site","status":"NOT_YET_RECRUITING","city":"Tampa","state":"Florida","zip":"33609","country":"United States","geoPoint":{"lat":27.94752,"lon":-82.45843}},{"facility":"Clinical Site","status":"NOT_YET_RECRUITING","city":"Atlanta","state":"Georgia","zip":"30331","country":"United States","geoPoint":{"lat":33.749,"lon":-84.38798}},{"facility":"Clinical Site","status":"NOT_YET_RECRUITING","city":"Decatur","state":"Georgia","zip":"30030","country":"United States","geoPoint":{"lat":33.77483,"lon":-84.29631}},{"facility":"Clinical Site","status":"NOT_YET_RECRUITING","city":"Boston","state":"Massachusetts","zip":"02131","country":"United States","geoPoint":{"lat":42.35843,"lon":-71.05977}},{"facility":"Clinical Site","status":"NOT_YET_RECRUITING","city":"North Canton","state":"Ohio","zip":"44720","country":"United States","geoPoint":{"lat":40.87589,"lon":-81.40234}},{"facility":"Clinical Site","status":"NOT_YET_RECRUITING","city":"Oklahoma City","state":"Oklahoma","zip":"73120","country":"United States","geoPoint":{"lat":35.46756,"lon":-97.51643}},{"facility":"Clinical Site","status":"NOT_YET_RECRUITING","city":"Allentown","state":"Pennsylvania","zip":"18104","country":"United States","geoPoint":{"lat":40.60843,"lon":-75.49018}},{"facility":"Clinical Site","status":"NOT_YET_RECRUITING","city":"Media","state":"Pennsylvania","zip":"19063","country":"United States","geoPoint":{"lat":39.91678,"lon":-75.38769}},{"facility":"Clinical Site","status":"RECRUITING","city":"Austin","state":"Texas","zip":"78737","country":"United States","geoPoint":{"lat":30.26715,"lon":-97.74306}},{"facility":"Clinical Site","status":"NOT_YET_RECRUITING","city":"Austin","state":"Texas","zip":"78759","country":"United States","geoPoint":{"lat":30.26715,"lon":-97.74306}},{"facility":"Clinical SIte","status":"RECRUITING","city":"DeSoto","state":"Texas","zip":"75115","country":"United States","geoPoint":{"lat":32.58986,"lon":-96.85695}},{"facility":"Clinical Site","status":"NOT_YET_RECRUITING","city":"Plano","state":"Texas","zip":"75093","country":"United States","geoPoint":{"lat":33.01984,"lon":-96.69889}},{"facility":"Clinical Site","status":"NOT_YET_RECRUITING","city":"Bellevue","state":"Washington","zip":"98007","country":"United States","geoPoint":{"lat":47.61038,"lon":-122.20068}}]},"ipdSharingStatementModule":{"ipdSharing":"NO"}},"derivedSection":{"miscInfoModule":{"versionHolder":"2024-07-01"},"conditionBrowseModule":{"meshes":[{"id":"D000001008","term":"Anxiety Disorders"}],"ancestors":[{"id":"D000001523","term":"Mental Disorders"}],"browseLeaves":[{"id":"M4324","name":"Anxiety Disorders","asFound":"Anxiety Disorder","relevance":"HIGH"},{"id":"M14473","name":"Psychotic Disorders","relevance":"LOW"},{"id":"M4815","name":"Mental Disorders","relevance":"LOW"}],"browseBranches":[{"abbrev":"BXM","name":"Behaviors and Mental Disorders"},{"abbrev":"All","name":"All Conditions"}]}},"hasResults":false}